[
  {
    "id": "1",
    "nombre": "Jardín Infantil Happy Hands",
    "telefonos": ["3017292721"],
    "correos": [],
    "direccion": "Calle 3N # 17-07 - Quinta Granada",
    "longitud": "-73.05213306626405",
    "latitud": "7.00172800096966",
    "maps": "https://maps.app.goo.gl/5L3HJvxY77VqkT9b7",
    "urlFoto": "",
    "ciudad": "PIEDECUESTA",
    "estado": "",
    "web": "",
    "notas": ["No tienen web"]
  },
  {
    "id": "2",
    "nombre": "Jardín Infantil Monerías",
    "telefonos": ["3165773683"],
    "correos": [],
    "direccion": "Cl. 1 #5-02, PIEDECUESTA, Santander",
    "longitud": "-73.05745294830034",
    "latitud": "6.995682621266038",
    "maps": "https://maps.app.goo.gl/fRp2EMFgRNKgeuVs9",
    "urlFoto": "",
    "ciudad": "PIEDECUESTA",
    "estado": "",
    "web": "https://jardinmonerias.wixsite.com/jardinmonerias/about1-c1x1t",
    "notas": []
  },
  {
    "id": "3",
    "nombre": "JARDIN INFANTIL LUDOTECA APRENDIENDO A CRECER",
    "telefonos": ["3142765771"],
    "correos": [],
    "direccion": "Cl. 1a #7N - 52, PIEDECUESTA, Santander",
    "longitud": "-73.06238080597085",
    "latitud": "6.998510517716807",
    "maps": "https://maps.app.goo.gl/nrKzcjZ9nF2R63HEA",
    "urlFoto": "",
    "ciudad": "PIEDECUESTA",
    "estado": "",
    "web": "",
    "notas": ["No tienen web"]
  },
  {
    "id": "4",
    "nombre": "Colegio Infantil Chiquitiernos",
    "telefonos": ["3005467865"],
    "correos": [],
    "direccion": "PIEDECUESTA, Santander",
    "longitud": "-73.05716245092322",
    "latitud": "6.9983742536319005",
    "maps": "https://maps.app.goo.gl/oATJ4nea2DXis7T98",
    "urlFoto": "",
    "ciudad": "PIEDECUESTA",
    "estado": "",
    "web": "",
    "notas": ["No tienen web"]
  },
  {
    "id": "5",
    "nombre": "Centro De Desarrollo Infantil",
    "telefonos": [],
    "correos": [],
    "direccion": "PIEDECUESTA, Santander",
    "longitud": "-73.05186259880308",
    "latitud": "6.974633959463654",
    "maps": "https://maps.app.goo.gl/gGfAYhYq1MoD2tnz7",
    "urlFoto": "",
    "ciudad": "PIEDECUESTA",
    "estado": "",
    "web": "",
    "notas": ["No tienen web"]
  },
  {
    "id": "6",
    "nombre": "Mundo infantil grandes sabios",
    "telefonos": ["3183098512"],
    "correos": [],
    "direccion": "barrio la cantera, Cl. 1B #7-52 Apto 101, PIEDECUESTA, Santander",
    "longitud": "-73.05562886257114",
    "latitud": "6.985542814947907",
    "maps": "https://maps.app.goo.gl/ZV2hh4P1cUEoJxXE9",
    "urlFoto": "",
    "ciudad": "PIEDECUESTA",
    "estado": "",
    "web": "",
    "notas": ["No tienen web"]
  },
  {
    "id": "7",
    "nombre": "Colegio Mis Primeros Sueños",
    "telefonos": ["(607)6561585", "3183624866"],
    "correos": ["colprimsuenos@gmail.com"],
    "direccion": "Cra. 16 #1b-17, PIEDECUESTA, Santander",
    "longitud": "-73.04969435653923",
    "latitud": "6.998652605418442",
    "maps": "https://maps.app.goo.gl/de7gk4ePW9NGVAEz5",
    "urlFoto": "",
    "ciudad": "PIEDECUESTA",
    "estado": "",
    "web": "",
    "notas": ["No tienen web"]
  },
  {
    "id": "8",
    "nombre": "Centro de Estimulación Temprana ÁGORA",
    "telefonos": ["(607)6559884", "3045736903"],
    "correos": [],
    "direccion": "Cra. 6ª D ##440, PIEDECUESTA, Santander",
    "longitud": "-73.0539664355824",
    "latitud": "6.995245206045861",
    "maps": "https://maps.app.goo.gl/KK9bcyJC13Te1SUr6",
    "urlFoto": "",
    "ciudad": "PIEDECUESTA",
    "estado": "",
    "web": "",
    "notas": [
      "No tienen web",
      "Paseo Cataluña. 🍎 X 🏠 4-61  Piedecuesta Santander"
    ]
  },
  {
    "id": "9",
    "nombre": "Jardin infantil Barney Y Sus Amigos",
    "telefonos": ["(607)6550092"],
    "correos": [],
    "direccion": "Cra. 9a #7-55, PIEDECUESTA, Santander",
    "longitud": "-73.0486541644176",
    "latitud": "6.988214361597844",
    "maps": "https://maps.app.goo.gl/hGmB3QXusc5Exi12A",
    "urlFoto": "",
    "ciudad": "PIEDECUESTA",
    "estado": "",
    "web": "",
    "notas": ["No tienen web"]
  },
  {
    "id": "10",
    "nombre": "Colegio Centro de Orientación Infantil - COI",
    "telefonos": ["3104270959", "(607)6654613"],
    "correos": ["rectora@coi.edu.co"],
    "direccion": "Cra. 5 #5-80, Piedecuesta, Santander",
    "longitud": "-73.05351145092321",
    "latitud": "6.988109922840373",
    "maps": "https://maps.app.goo.gl/Wp8jH5hsQEMwXwCQ7",
    "urlFoto": "",
    "ciudad": "PIEDECUESTA",
    "estado": "",
    "web": "https://coi.edu.co/",
    "notas": ["La página tarda en cargar"]
  },
  {
    "id": "11",
    "nombre": "Jardin Infantil Pintando Un Manana S A S",
    "telefonos": ["3156008907"],
    "correos": [],
    "direccion": "CARRERA 1 D 22 32 BARRIO PASEO DEL PUENTE 2",
    "longitud": "-73.0496002711648",
    "latitud": "6.975113936991829",
    "maps": "https://maps.app.goo.gl/1EWTukDrVDEzLF6z5",
    "urlFoto": "",
    "ciudad": "PIEDECUESTA",
    "estado": "",
    "web": "",
    "notas": ["No tienen web"]
  }
]
